$UNIVERSITY_JSON = 
[
 {"id":0,
    "name":"Universidad de Alicante",
    "address":"Escuela Polit&eacute;cnica Superior.Carretera San Vicente del Raspeig, s/n",
    "city":"San Vicente del Raspeig",
    "imagen":"images/ua.png",
    "url":"http://www.eps.ua.es",
    "state":"Alicante",
    "zip":"",
    "grado":"Ingeniería Informática,Ingeniería Multimedia",
    "verified":false,
    "geolat":38.38675,
    "geolong":-0.51133,
    "stats":{"herenow":"0"},
    "distance":0
    },
     {"id":1,
    "name":"Universidad Miguél Hernández de Elche",
    "address":"Escuela Politécnica Superior",
    "city":"Elche",
    "imagen":"images/umh.png",
    "url":"http://www.umh.es",
    "state":"Alicante",
    "zip":"",
    "grado":"Ingeniería Informática en Tecnologías de la Información",
    "verified":false,
    "geolat":38.2790,
    "geolong": -0.6872,
    "stats":{"herenow":"0"},
    "distance":0
    },
    {"id":2,
    "name":"Universidad de las Illes Balears",
    "address":"Carretera de Valldemossa, km 7,5, Universidad de las Islas Baleares",
    "city":"Palma de Mallorca",
    "imagen":"images/uib.png",
    "url":"http://eps.uib.es/",
    "state":"Palma de Mallorca",
    "zip":"",
    "grado":"Ingenier&iacute;a Informática",
    "verified":false,
    "geolat":39.64121,
    "geolong": 2.64539,
    "stats":{"herenow":"0"},
    "distance":0
    },
     {"id":3,
    "name":"Universitat Politècnica de València.Campus Alcoy",
    "address":"Escuela Politécnica Superior de Alcoy.Carrer Joan Cantó, 12, Campus de Alcoy",
    "city":"Alcoy",
    "imagen":"images/upv_alcoy.png",
    "url":"http://www.epsa.upv.es/",
    "state":"Alicante",
    "zip":"",
    "grado":"Ingenier&iacute;a Informática",
    "verified":false,
    "geolat":38.69486,
    "geolong": -0.47596,
    "stats":{"herenow":"0"},
    "distance":0
    },
     {"id":4,
    "name":"Universitat Politècnica de València.Campus Valencia",
    "address":"ETS de Ingeniería Informática, Campus de Vera",
    "city":"Valencia",
    "imagen":"images/upv.png",
    "url":"http://www.inf.upv.es/",
    "state":"Valencia",
    "zip":"",
    "grado":"Ingenier&iacute;a Informática",
    "verified":false,
    "geolat":39.48293, 
    "geolong": -0.34697,
    "stats":{"herenow":"0"},
    "distance":0
    },
    {"id":5,
    "name":"Universidad Rey Juan Carlos",
    "address":"Calle Tulipán, 16, Universidad Rey Juan Carlos, Campus de Móstoles",
    "city":"Móstoles",
    "imagen":"images/urjc.jpg",
    "url":"http://www.etsii.urjc.es/",
    "state":"Móstoles",
    "zip":"",
    "grado":"Diseño y Desarrollo de Videojuegos",
    "verified":false,
    "geolat":40.33558, 
    "geolong": -3.87293,
    "stats":{"herenow":"0"},
    "distance":0
    },
     {"id":6,
    "name":"Universidad Jaume I de Castellón",
    "address":"Escuela Superior de Tecnologia I Ciencias Experimentales, Avenguda Avenida de Vicente Sos Baynat, UJI - Universidad Jaume I de Castellón",
    "city":"Castellón",
    "imagen":"images/uji.png",
    "url":"http://www.uji.es/CA/uji/acad/",
    "state":"Castellón",
    "zip":"",
    "grado":"Diseño y Desarrollo de Videojuegos",
    "verified":false,
    "geolat":39.99270, 
    "geolong": -0.06752,
    "stats":{"herenow":"0"},
    "distance":0
    },
     {"id":7,
    "name":"Universidad de Málaga",
    "address":"Bulevar Louis Pasteur, 29, Universidad de Málaga",
    "city":"Málaga",
    "imagen":"images/uma.gif",
    "url":"http://www.informatica.uma.es/",
    "state":"Málaga",
    "zip":"",
    "grado":"Ingeniería de Computadores,Ingeniería del software",
    "verified":false,
    "geolat":36.71720,  
    "geolong": -4.47413,
    "stats":{"herenow":"0"},
    "distance":0
    },
    {"id":8,
    "name":"Universidad Complutense de Madrid",
    "address":"Calle Profesor José García Santesmases, Universidad Complutense",
    "city":"Madrid",
    "imagen":"images/ucm.png",
    "url":"http://www.fdi.ucm.es",
    "state":"Madrid",
    "zip":"",
    "grado":"Ingeniería de Computadores,Ingeniería del Software,Ingeniería Informática",
    "verified":false,
    "geolat":40.45282, 
    "geolong": -3.73349,
    "stats":{"herenow":"0"},
    "distance":0
    },
    {"id":9,
    "name":"Universidad San Pablo-CEU",
    "address":"Plaza Montepríncipe, 1, Campus de Montepríncipe",
    "city":"Alcorcón",
    "imagen":"images/ceu.jpg",
    "url":"http://eps.uspceu.es/",
    "state":"Madrid",
    "zip":"",
    "grado":"Graduado en Ingeniería de Sistemas de Información",
    "verified":false,
    "geolat":40.39970, 
    "geolong": -3.8354,
    "stats":{"herenow":"0"},
    "distance":0
    },
    {"id":10,
    "name":"Universidad Politécnica de Catalunya.Campus Manresa",
    "address":"Avinguda de les Bases de Manresa, 61, Universitat Politècnica de Catalunya, Escola Politècnica Superior d'Enginyeria de Manresa (EPSEM)",
    "city":"Manresa",
    "imagen":"images/upc.png",
    "url":"http://www.epsem.upc.edu/",
    "state":"Barcelona",
    "zip":"",
    "grado":"Ingeniería de Sistemas TIC",
    "verified":false,
    "geolat":41.73730, 
    "geolong": 1.82879,
    "stats":{"herenow":"0"},
    "distance":0
    },
    {"id":101,
    "name":"Universidad Politécnica de Catalunya.Campus Barcelona",
    "address":"Facultat d'Informàtica de Barcelona",
    "city":"Barcelona",
    "imagen":"images/upc.png",
    "url":"http://www.fib.upc.edu/fib.html",
    "state":"Barcelona",
    "zip":"",
    "grado":"Ingeniería Informática,Ingeniería de computadores,Ingeniería del software,Sistemas de información,Tecnologías de la información",
    "verified":false,
    "geolat":41.38940, 
    "geolong": 2.11329,
    "stats":{"herenow":"0"},
    "distance":0
    },
   {"id":102,
    "name":"Universidad Politécnica de Catalunya.Campus Vilanova i la Geltrú",
    "address":"Escola Politècnica Superior d'Enginyeria de Vilanova i la Geltrú",
    "city":"Vilanova i la Geltrú",
    "imagen":"images/upc.png",
    "url":"http://www.epsevg.upc.edu/",
    "state":"Barcelona",
    "zip":"",
    "grado":"Ingeniería Informática",
    "verified":false,
    "geolat":41.22102, 
    "geolong": 1.73007,
    "stats":{"herenow":"0"},
    "distance":0
    },
    {"id":103,
    "name":"Universidad Politécnica de Catalunya.Campus Mataró",
    "address":"Escola Universitària Politècnica de Mataró (EUPMT)",
    "city":"Manresa",
    "imagen":"images/upc.png",
    "url":"http://www.eupmt.cat/",
    "state":"Barcelona",
    "zip":"",
    "grado":"Ingeniería Informática",
    "verified":false,
    "geolat":41.577, 
    "geolong": 2.431,
    "stats":{"herenow":"0"},
    "distance":0
    },
    {"id":11,
    "name":"Universidad Autónoma de Madrid",
    "address":"Escuela Politécnica Superior, Universidad Autónoma de Madrid",
    "city":"Madrid",
    "imagen":"images/uam_eps.jpg",
    "url":"http://www.ii.uam.es/",
    "state":"Madrid",
    "zip":"",
    "grado":"Ingeniería de Tecnologías y Servicios de Telecomunicación",
    "verified":false,
    "geolat":40.54700, 
    "geolong": -3.69170,
    "stats":{"herenow":"0"},
    "distance":0
    },
     {"id":12,
    "name":"Universidad de Zaragoza",
    "address":"Calle M.Esquillor Gómez",
    "city":"Zaragoza",
    "imagen":"images/uza.png",
    "url":"http://eina.unizar.es/",
    "state":"Zaragoza",
    "zip":"",
    "grado":"Ingeniería de Tecnologías y Servicios de Telecomunicación",
    "verified":false,
    "geolat":41.68381,  
    "geolong": -0.88732,
    "stats":{"herenow":"0"},
    "distance":0
    },
    {"id":13,
    "name":"Universidad Politécnica de Madrid",
    "address":"Calle Provisional Politécnica de Vallecas Cu, 2, Universidad Politécnica de Madrid, UPM Campus Sur",
    "city":"Madrid",
    "imagen":"images/euitt.png",
    "url":"http://www.etsit.upm.es/",
    "state":"Madrid",
    "zip":"",
    "grado":"Ingeniería de Tecnologías y Servicios de Telecomunicación",
    "verified":false,
    "geolat":40.389012, 
    "geolong": -3.628718,
    "stats":{"herenow":"0"},
    "distance":0
    },
     {"id":14,
    "name":"Mondragón Unibertsitatea",
    "address":"Loramendi Kalea, 4, Campus de Mondragón",
    "city":"Arrasate",
    "imagen":"images/umon.gif",
    "url":"http://www.mondragon.edu/eps/",
    "state":"Gipuzkoa",
    "zip":"",
    "grado":"Ingeniería del Software",
    "verified":false,
    "geolat":43.061865, 
    "geolong": -2.497061,
    "stats":{"herenow":"0"},
    "distance":0
    },
    {"id":15,
    "name":"Universidad a Distancia de Madrid",
    "address":"Collado Villalba",
    "city":"Collado Villalba",
    "imagen":"images/udima.jpg",
    "url":"http://www.udima.es/es/grado-ingenieria-informatica.html",
    "state":"Madrid",
    "zip":"",
    "grado":"Ingeniería Informática,Máster Universitario en Arquitectura del Software,Máster Universitario en Ingeniería del Software",
    "verified":false,
    "geolat":40.63255, 
    "geolong": -4.00051,
    "stats":{"herenow":"0"},
    "distance":0
    },
    {"id":16,
    "name":"Universidad Alfonso X El Sabio",
    "address":"Av Universidad 1 Universidad Alfonso X el Sabio - UAX",
    "city":"Villanueva de la Cañada",
    "imagen":"images/uax.jpg",
    "url":"http://www.uax.es/que-estudiar/grados-en-la-uax/ingenierias/grado-en-ingenieria-informatica.html",
    "state":"Madrid",
    "zip":"",
    "grado":"Ingeniería Informática,Ingeniería en Sistemas de Información",
    "verified":false,
    "geolat":40.45099, 
    "geolong": -3.98750,
    "stats":{"herenow":"0"},
    "distance":0
    },
    {"id":17,
    "name":"Universidad Antonio de Nebrija",
    "address":"Edificio Universitario Pirineos, Universidad Antonio de Nebrija",
    "city":"Madrid",
    "imagen":"images/uan.jpg",
    "url":"http://www.nebrija.com/la_universidad/facultades/escuela-politecnica-superior-arquitectura/index.htm",
    "state":"Madrid",
    "zip":"",
    "grado":"Ingeniería Informática",
    "verified":false,
    "geolat":40.453352, 
    "geolong": -3.718885,
    "stats":{"herenow":"0"},
    "distance":0
    },
    {"id":18,
    "name":"Universidad Autónoma de Barcelona",
    "address":"Edifici Q, Carrer Universitat Autònoma B, Escola Tècnica Superior d'Enginyeria",
    "city":"Cerdanyola del Vallès",
    "imagen":"images/uab.jpg",
    "url":"http://www.uab.es/escola-enginyeria/",
    "state":"Barcelona",
    "zip":"",
    "grado":"Ingeniería Informática,Informática y Servicios",
    "verified":false,
    "geolat":41.50019, 
    "geolong": 2.11166,
    "stats":{"herenow":"0"},
    "distance":0
    },
    {"id":19,
    "name":"Universidad Camilo José Cela",
    "address":"Calle Playa de Liencres, 2",
    "city":"Las Rozas",
    "imagen":"images/ucjc.jpg",
    "url":"http://www.u-tad.com/es/",
    "state":"Madrid",
    "zip":"",
    "grado":"Ingeniería Informatica",
    "verified":false,
    "geolat":40.53951, 
    "geolong": -3.89329,
    "stats":{"herenow":"0"},
    "distance":0
    },
    {"id":20,
    "name":"Universidad Cardenal Herrera-CEU",
    "address":"Escuela Superior de Enseñanzas Tecnicas",
    "city":"Alfara del Patriarca",
    "imagen":"images/ceu.jpg",
    "url":"http://www.uchceu.es/estudios/grado/ingenieria_sistemas_informacion.aspx",
    "state":"Valencia",
    "zip":"",
    "grado":"Ingeniería Informatica de Sistemas de información",
    "verified":false,
    "geolat":39.542679, 
    "geolong": -0.385881,
    "stats":{"herenow":"0"},
    "distance":0
    },
    {"id":21,
    "name":"Universidad Carlos III de Madrid",
    "address":"Calle de Butarque, 15, UC3M - Campus de Leganés, Universidad Carlos III",
    "city":"Leganés",
    "imagen":"images/uc3m.jpg",
    "url":"http://www.uc3m.es/portal/page/portal/escu_polit_sup",
    "state":"Madrid",
    "zip":"",
    "grado":"Ingeniería Informática",
    "verified":false,
    "geolat":40.33256, 
    "geolong": -3.76576,
    "stats":{"herenow":"0"},
    "distance":0
    },
    {"id":22,
    "name":"Universidad Católica San Antonio",
    "address":"Carretera de los Jerónimos, 135, Universidad Católica San Antonio de Murcia",
    "city":"Murcia",
    "imagen":"images/ucam.jpg",
    "url":"http://www.ucam.edu/estudios/grados/informatica-presencial",
    "state":"Murcia",
    "zip":"",
    "grado":"Ingeniería Informática",
    "verified":false,
    "geolat":37.991301,
    "geolong": -1.185898,
    "stats":{"herenow":"0"},
    "distance":0
    },
    {"id":23,
    "name":"Universidad de A Coruña",
    "address":"Facultade de Informática",
    "city":"A Coruña",
    "imagen":"images/ucoruna.png",
    "url":"http://www.fic.udc.es/MainPage.do",
    "state":"A Coruña",
    "zip":"",
    "grado":"Ingeniería Informática",
    "verified":false,
    "geolat":43.33293, 
    "geolong": -8.41091,
    "stats":{"herenow":"0"},
    "distance":0
    },
    {"id":24,
    "name":"Universidad de Alcalá",
    "address":"Av de León, 1A",
    "city":"Alcalá de Henares",
    "imagen":"images/alcala.gif",
    "url":"http://www2.uah.es/etsii/",
    "state":"Madrid",
    "zip":"",
    "grado":"Ingeniería de Computadores,Ingeniero en Informática,Sistemas de Información",
    "verified":false,
    "geolat":40.51319, 
    "geolong": -3.34966,
    "stats":{"herenow":"0"},
    "distance":0
    },
    {"id":25,
    "name":"Universidad de Almería",
    "address":"Edif. Departmental De CC. Económicas y Empresariales, Universidad de Almería",
    "city":"Almería",
    "imagen":"images/almeria.jpg",
    "url":"http://cms.ual.es/UAL/estudios/grados/GRADO4010",
    "state":"Almería",
    "zip":"",
    "grado":"Ingeniero en Informática",
    "verified":false,
    "geolat":36.82968, 
    "geolong": -2.40469,
    "stats":{"herenow":"0"},
    "distance":0
    },
    {"id":26,
    "name":"Universidad de Barcelona",
    "address":"Gran Via de les Corts Catalanes, 585",
    "city":"Barcelona",
    "imagen":"images/barcelona.jpg",
    "url":"http://www.mat.ub.edu/es/",
    "state":"Barcelona",
    "zip":"",
    "grado":"Ingeniero en Informática",
    "verified":false,
    "geolat":41.38681, 
    "geolong": 2.16472,
    "stats":{"herenow":"0"},
    "distance":0
    },
    {"id":27,
    "name":"Universidad de Burgos",
    "address":"Calle Villadiego, 19",
    "city":"Burgos",
    "imagen":"images/burgos.jpg",
    "url":"http://www.ubu.es/ubu/cm/eps?locale=es_ES&amp;textOnly=false",
    "state":"Burgos",
    "zip":"",
    "grado":"Ingeniero en Informática",
    "verified":false,
    "geolat":42.343622, 
    "geolong": -3.735260,
    "stats":{"herenow":"0"},
    "distance":0
    },
    {"id":28,
    "name":"Universidad de Cádiz",
    "address":"Escuela Superior de Ingeniería",
    "city":"Cádiz",
    "imagen":"images/esi_cadiz.png",
    "url":"http://www.uca.es/esingenieria/",
    "state":"Cádiz",
    "zip":"",
    "grado":"Ingeniero en Informática",
    "verified":false,
    "geolat":36.533549, 
    "geolong": -6.303344,
    "stats":{"herenow":"0"},
    "distance":0
    },
    {"id":29,
    "name":"Universidad de Cantabria",
    "address":"Av los Castros, 48, Campus de los Llamas, Universidad de Cantabria",
    "city":"Santander",
    "imagen":"images/cantabria.jpg",
    "url":"http://www.unican.es/Centros/ciencias/",
    "state":"Cantabria",
    "zip":"",
    "grado":"Ingeniero en Informática",
    "verified":false,
    "geolat":43.471433, 
    "geolong": -3.801135,
    "stats":{"herenow":"0"},
    "distance":0
    },
    {"id":30,
    "name":"Universidad de Castilla-La Mancha.Campus Ciudad Real",
    "address":"Paseo de la Universidad, 4",
    "city":"Ciudad Real",
    "imagen":"images/uclm.jpg",
    "url":"http://webpub.esi.uclm.es/",
    "state":"Ciudad Real",
    "zip":"",
    "grado":"Ingeniero en Informática",
    "verified":false,
    "geolat":38.990368, 
    "geolong": -3.920883,
    "stats":{"herenow":"0"},
    "distance":0
    },
    {"id":31,
    "name":"Universidad de Castilla-La Mancha.Campus Albacete",
    "address":"Edificio Infante Don Juan Manuel, Universidad de Castilla-La Mancha, Campus de Albacete",
    "city":"Albacete",
    "imagen":"images/uclm.jpg",
    "url":"http://www.esiiab.uclm.es/",
    "state":"Albacete",
    "zip":"",
    "grado":"Ingeniero en Informática",
    "verified":false,
    "geolat":38.97879, 
    "geolong": -1.85673,
    "stats":{"herenow":"0"},
    "distance":0
    },
    {"id":32,
    "name":"Universidad de Córdoba",
    "address":"Escuela Politécnica Superior.Edificio Paraninfo, Primera Planta. Campus de Rabanales.",
    "city":"Córdoba",
    "imagen":"images/cordoba.png",
    "url":"http://www.uco.es/eps/",
    "state":"Córdoba",
    "zip":"",
    "grado":"Ingeniería Informática,Máster en Sistemas Inteligentes",
    "verified":false,
    "geolat":37.91435, 
    "geolong": -4.7193,
    "stats":{"herenow":"0"},
    "distance":0
    },
    {"id":33,
    "name":"Universidad de Extremadura.Campus Mérida",
    "address":"Calle Aguadores, Universidad de Extremadura - Campus Mérida",
    "city":"Mérida",
    "imagen":"images/extremadura.gif",
    "url":"http://www.unex.es/conoce-la-uex/estructura-academica/centros/cum/titulaciones/grado",
    "state":"Badajoz",
    "zip":"",
    "grado":"Ingeniería Informática en Tecnologías de la Información",
    "verified":false,
    "geolat":38.907797, 
    "geolong": -6.338669,
    "stats":{"herenow":"0"},
    "distance":0
    },
    {"id":34,
    "name":"Universidad de Extremadura.Campus Cáceres",
    "address":"Escuela Politécnica, Llanos de Cáceres y Sierra de Fuentes, Universidad de Extremadura - Campus Badajoz",
    "city":"Cáceres",
    "imagen":"images/extremadura.gif",
    "url":"http://www.unex.es/conoce-la-uex/estructura-academica/centros/epcc/titulaciones/grado",
    "state":"Badajoz",
    "zip":"",
    "grado":"Ingeniería Informática,Ingeniería de Computadores,Ingeniería del Software",
    "verified":false,
    "geolat":39.47901, 
    "geolong": -6.34279,
    "stats":{"herenow":"0"},
    "distance":0
    },
    {"id":35,
    "name":"Universidad de Girona",
    "address":"Campus de Montilivi",
    "city":"Girona",
    "imagen":"images/girona.png",
    "url":"http://www.udg.edu/tabid/12337/Default.aspx?ID=3105G0710&language=ca-ES&IDE=99",
    "state":"Girona",
    "zip":"",
    "grado":"Ingeniería Informática",
    "verified":false,
    "geolat":41.96419, 
    "geolong": 2.82934,
    "stats":{"herenow":"0"},
    "distance":0
    },
    {"id":36,
    "name":"Universidad de Granada",
    "address":"Calle Periodista Alberto Machado C",
    "city":"Granada",
    "imagen":"images/granada.jpg",
    "url":"http://etsiit.ugr.es/",
    "state":"Granada",
    "zip":"",
    "grado":"Ingeniería Informática,Ingeniería de Tecnologías de Telecomunicación",
    "verified":false,
    "geolat":37.19698,  
    "geolong": -3.62425,
    "stats":{"herenow":"0"},
    "distance":0
    },
    {"id":37,
    "name":"Universidad de Huelva",
    "address":"Edificio Manuel Martin Bolanos, Universidad de Huelva, Campus Universitario La Rabida",
    "city":"La Rabida",
    "imagen":"images/huelva.jpg",
    "url":"http://www.uhu.es/eps/",
    "state":"Huelva",
    "zip":"",
    "grado":"Ingeniería Informática",
    "verified":false,
    "geolat":37.20177, 
    "geolong": -6.9192,
    "stats":{"herenow":"0"},
    "distance":0
    },
    {"id":38,
    "name":"Universidad de Jaén",
    "address":"Calle de Ben Saprut, 1",
    "city":"Jaén",
    "imagen":"images/jaen.gif",
    "url":"http://eps.ujaen.es/",
    "state":"Jaén",
    "zip":"",
    "grado":"Ingeniería Informática",
    "verified":false,
    "geolat":37.78718, 
    "geolong": -3.77784,
    "stats":{"herenow":"0"},
    "distance":0
    },
     {"id":39,
    "name":"Universidad de La Laguna",
    "address":"Escuela Técnica Superior de Ingeniería Informática de la Universidad de la Laguna",
    "city":"San Cristóbal de la Laguna",
    "imagen":"images/laguna.gif",
    "url":"http://www.ull.es/view/centros/etsii/Inicio/es",
    "state":"Santa Cruz de Tenerife",
    "zip":"",
    "grado":"Ingeniería Informática",
    "verified":false,
    "geolat":28.48304, 
    "geolong": -16.32133,
    "stats":{"herenow":"0"},
    "distance":0
    },
    {"id":40,
    "name":"Universidad de la Rioja",
    "address":"Edificio Politécnico, Universidad de La Rioja",
    "city":"Logroño",
    "imagen":"images/rioja.jpg",
    "url":"",
    "state":"La Rioja",
    "zip":"",
    "grado":"Ingeniería Informática",
    "verified":false,
    "geolat":42.465607, 
    "geolong": -2.426546,
    "stats":{"herenow":"0"},
    "distance":0
    },
    {"id":41,
    "name":"Universidad de Las Palmas de Gran Canaria",
    "address":"Edificio de Informática y Matemáticas, Rectorado de la Universidad de Las Palmas de Gran Canaria",
    "city":"Las Palmas de Gran Canaria",
    "imagen":"images/canarias.gif",
    "url":"http://www.eii.ulpgc.es/tb_university_ex/?q=frontpage&destination=frontpage",
    "state":"Las Palmas",
    "zip":"",
    "grado":"Ingeniería Informática",
    "verified":false,
    "geolat":28.073332, 
    "geolong": -15.451447,
    "stats":{"herenow":"0"},
    "distance":0
    },
    {"id":42,
    "name":"Universidad de León",
    "address":"Escuela de Ingenierías Industrial e Informática, Campus Universitario de Vegazana, Universidad de León",
    "city":"León",
    "imagen":"images/leon.gif",
    "url":"http://centros.unileon.es/eiii/",
    "state":"León",
    "zip":"",
    "grado":"Ingeniería Informática",
    "verified":false,
    "geolat":42.61408, 
    "geolong": -5.56098,
    "stats":{"herenow":"0"},
    "distance":0
    },
    {"id":43,
    "name":"Universidad de Lleida",
    "address":"Campus Cappont, Carrer de Jaume II, 69, Universidad de Lérida",
    "city":"Lérida",
    "imagen":"images/lleida.png",
    "url":"http://www.eps.udl.cat/",
    "state":"Lérida",
    "zip":"",
    "grado":"Ingeniería Informática",
    "verified":false,
    "geolat":41.60811, 
    "geolong": 0.62356,
    "stats":{"herenow":"0"},
    "distance":0
    },
    {"id":44,
    "name":"Universidad de Murcia",
    "address":"Facultad de Informática de la Universidad de Murcia.Campus Universitario de Espinardo",
    "city":"Murcia",
    "imagen":"images/murcia.gif",
    "url":"http://www.um.es/informatica/",
    "state":"Murcia",
    "zip":"",
    "grado":"Ingeniería Informática,Máster en Nuevas Tecnologías en Informática",
    "verified":false,
    "geolat":38.02374,  
    "geolong": -1.17442,
    "stats":{"herenow":"0"},
    "distance":0
    },
    {"id":45,
    "name":"Universidad de Oviedo.Campus Oviedo",
    "address":"Escuela de Ingeniería Informática. Universidad de Oviedo.Calle Valdés Salas",
    "city":"Oviedo",
    "imagen":"images/oviedo.png",
    "url":"http://www.ingenieriainformatica.uniovi.es/",
    "state":"Asturias",
    "zip":"",
    "grado":"Ingeniería Informática del software,Máster y doctorado en Ingeniería web",
    "verified":false,
    "geolat":43.354993, 
    "geolong": -5.851437,
    "stats":{"herenow":"0"},
    "distance":0
    },
    {"id":46,
    "name":"Universidad de Oviedo.Campus de Gijón",
    "address":"Escuela Politecnica de Ingenieria, UO - Campus de Gijón",
    "city":"Gijón",
    "imagen":"images/gijon.jpg",
    "url":"http://www.epigijon.uniovi.es/",
    "state":"Asturias",
    "zip":"",
    "grado":"Ingeniería Informática en Tecnologías de la Información",
    "verified":false,
    "geolat":43.52439, 
    "geolong": -5.63441,
    "stats":{"herenow":"0"},
    "distance":0
    },
    {"id":47,
    "name":"Universidad de Salamanca.Campus Zamora",
    "address":"USAL - Escuela Politécnica Superior de Zamora, 34, Universidad de Salamanca",
    "city":"Zamora",
    "imagen":"images/zamora.gif",
    "url":"http://poliz.usal.es/politecnica/v1r00/",
    "state":"Salamanca",
    "zip":"",
    "grado":"Ingeniería Informática en Sistemas de Información",
    "verified":false,
    "geolat":41.51182, 
    "geolong": -5.73517,
    "stats":{"herenow":"0"},
    "distance":0
    },
     {"id":48,
    "name":"Universidad de Salamanca",
    "address":"Facultad de Ciencias de la Universidad de Salamanca",
    "city":"Salamanca",
    "imagen":"images/salamanca.png",
    "url":"http://informatica.usal.es/gii",
    "state":"Salamanca",
    "zip":"",
    "grado":"Ingeniería Informática",
    "verified":false,
    "geolat":40.96055, 
    "geolong": -5.67060,
    "stats":{"herenow":"0"},
    "distance":0
    },
    {"id":49,
    "name":"Universidad de Santiago de Compostela",
    "address":"Escola Técnica Superior de Enxeñaria.Campus Sur.Calle De Lope Gómez de Marzoa",
    "city":"Santiago de Compostela",
    "imagen":"images/compostela.png",
    "url":"http://www.usc.es/etse/grii",
    "state":"A Coruña",
    "zip":"",
    "grado":"Ingeniería Informática,Máster en Tecnologías de la Información",
    "verified":false,
    "geolat":42.87321,
    "geolong": -8.56016,
    "stats":{"herenow":"0"},
    "distance":0
    },
     {"id":50,
    "name":"Universidad de Sevilla",
    "address":"Universidad de Sevilla Escuela Técnica Superior de Arquitectura.Avenida Reina Mercedes",
    "city":"Sevilla",
    "imagen":"images/sevilla.gif",
    "url":"http://www.informatica.us.es/",
    "state":"Sevilla",
    "zip":"",
    "grado":"Ingeniería Informática,Ingeniería de Computadores,Ingeniería del Software,Tecnologías Informáticas",
    "verified":false,
    "geolat":37.36240, 
    "geolong": -5.98654,
    "stats":{"herenow":"0"},
    "distance":0
    },
    {"id":51,
    "name":"Universidad de Valladolid",
    "address":"Escuela Técnica Superior de Ingenieros de Telecomunicación y Escuela Técnica Superior de Ingeniería Informática de Valladolid",
    "city":"Valladolid",
    "imagen":"images/valladolid.jpg",
    "url":"https://www.inf.uva.es/",
    "state":"Valladolid",
    "zip":"",
    "grado":"Ingeniería Informática",
    "verified":false,
    "geolat":41.662717, 
    "geolong": -4.705378,
    "stats":{"herenow":"0"},
    "distance":0
    },
    {"id":52,
    "name":"Universidad de Vic",
    "address":"Edifici Torre Dels Frares, Campus Torre dels Frares (UVic), Universitat de Vic",
    "city":"Vic",
    "imagen":"images/uvic.gif",
    "url":"http://www.uvic.es/es/estudi/multimedia",
    "state":"Barcelona",
    "zip":"",
    "grado":"Ingeniería Multimedia",
    "verified":false,
    "geolat":41.930684, 
    "geolong": 2.245556,
    "stats":{"herenow":"0"},
    "distance":0
    },
    {"id":53,
    "name":"Universidad de Vigo",
    "address":"ETS de Ingenieros de Telecomunicación, Universidad de Vigo, Vigo Campus",
    "city":"Vigo",
    "imagen":"images/vigo.jpg",
    "url":"http://www.esei.uvigo.es/",
    "state":"Pontevedra",
    "zip":"",
    "grado":"Ingeniería Multimedia",
    "verified":false,
    "geolat":42.16999, 
    "geolong": -8.68852,
    "stats":{"herenow":"0"},
    "distance":0
    }
    
    
];